{
  "metaData": {
    "requestParameters": {
      "busCount": 7,
      "expressbusCount": 0,
      "subwayCount": 0,
      "airplaneCount": 0,
      "locale": "ko",
      "endY": "37.5005732503054",
      "endX": "126.99418812417571",
      "wideareaRouteCount": 0,
      "subwayBusCount": 3,
      "startY": "37.49971338235268",
      "startX": "127.05787679576707",
      "ferryCount": 0,
      "trainCount": 0,
      "reqDttm": "20250625152835"
    },
    "plan": {
      "itineraries": [
        {
          "fare": {
            "regular": {
              "totalFare": 1500,
              "currency": {
                "symbol": "￦",
                "currency": "원",
                "currencyCode": "KRW"
              }
            }
          },
          "totalTime": 3034,
          "legs": [
            {
              "mode": "WALK",
              "sectionTime": 261,
              "distance": 363,
              "start": {
                "name": "출발지",
                "lon": 127.05787679576707,
                "lat": 37.49971338235268
              },
              "end": {
                "name": "도곡초등학교",
                "lon": 127.05669444444445,
                "lat": 37.49763333333333
              },
              "steps": [
                {
                  "streetName": "",
                  "distance": 29,
                  "description": "29m 이동",
                  "linestring": "127.05806,37.49977 127.05818,37.499523"
                },
                {
                  "streetName": "보행자도로",
                  "distance": 142,
                  "description": "시에나 에서 우회전 후 보행자도로 을 따라 142m 이동 ",
                  "linestring": "127.05818,37.499523 127.05815,37.499474 127.058174,37.499424 127.0584,37.498974 127.05842,37.498943 127.05844,37.498894 127.058685,37.498432 127.058685,37.498344"
                },
                {
                  "streetName": "도곡로",
                  "distance": 192,
                  "description": "던킨도너츠 대치2점 에서 우회전 후 도곡로 을 따라 192m 이동 ",
                  "linestring": "127.058685,37.498344 127.05862,37.498318 127.057816,37.498074 127.05742,37.497944 127.05666,37.497696"
                }
              ]
            },
            {
              "mode": "BUS",
              "routeColor": "0068B7",
              "sectionTime": 2050,
              "route": "간선:361",
              "routeId": "1907001",
              "distance": 6847,
              "service": 1,
              "start": {
                "name": "도곡초등학교",
                "lon": 127.05669444444445,
                "lat": 37.49763333333333
              },
              "passStopList": {
                "stationList": [
                  {
                    "index": 0,
                    "stationName": "도곡초등학교",
                    "lon": "127.056694",
                    "lat": "37.497633",
                    "stationID": "772459"
                  },
                  {
                    "index": 1,
                    "stationName": "한티역2번출구.서울강남고용노동지청",
                    "lon": "127.053961",
                    "lat": "37.496744",
                    "stationID": "772431"
                  },
                  {
                    "index": 2,
                    "stationName": "한티역7번출구",
                    "lon": "127.051522",
                    "lat": "37.495989",
                    "stationID": "772409"
                  },
                  {
                    "index": 3,
                    "stationName": "역삼중학교.강남세브란스병원",
                    "lon": "127.047789",
                    "lat": "37.494678",
                    "stationID": "772361"
                  },
                  {
                    "index": 4,
                    "stationName": "역삼2동주민센터.대림역삼아파트",
                    "lon": "127.045967",
                    "lat": "37.496269",
                    "stationID": "772417"
                  },
                  {
                    "index": 5,
                    "stationName": "역삼자이아파트",
                    "lon": "127.044336",
                    "lat": "37.499744",
                    "stationID": "772537"
                  },
                  {
                    "index": 6,
                    "stationName": "KT강남지사",
                    "lon": "127.041986",
                    "lat": "37.504767",
                    "stationID": "772708"
                  },
                  {
                    "index": 7,
                    "stationName": "국민은행논현동지점",
                    "lon": "127.037336",
                    "lat": "37.508450",
                    "stationID": "772824"
                  },
                  {
                    "index": 8,
                    "stationName": "언주역4번출구.차병원사거리",
                    "lon": "127.035075",
                    "lat": "37.507792",
                    "stationID": "772799"
                  },
                  {
                    "index": 9,
                    "stationName": "삼정호텔",
                    "lon": "127.031614",
                    "lat": "37.506761",
                    "stationID": "772772"
                  },
                  {
                    "index": 10,
                    "stationName": "신논현역3번출구",
                    "lon": "127.025864",
                    "lat": "37.505044",
                    "stationID": "772719"
                  },
                  {
                    "index": 11,
                    "stationName": "논현역(중)",
                    "lon": "127.023669",
                    "lat": "37.506364",
                    "stationID": "772763"
                  },
                  {
                    "index": 12,
                    "stationName": "논현역7번출구",
                    "lon": "127.019294",
                    "lat": "37.510611",
                    "stationID": "772889"
                  },
                  {
                    "index": 13,
                    "stationName": "반포역",
                    "lon": "127.012139",
                    "lat": "37.508453",
                    "stationID": "772823"
                  },
                  {
                    "index": 14,
                    "stationName": "고속터미널(중)",
                    "lon": "127.005056",
                    "lat": "37.506289",
                    "stationID": "772760"
                  },
                  {
                    "index": 15,
                    "stationName": "신반포역.세화여중고",
                    "lon": "126.995664",
                    "lat": "37.503508",
                    "stationID": "753743"
                  }
                ]
              },
              "end": {
                "name": "신반포역.세화여중고",
                "lon": 126.99566388888888,
                "lat": 37.503508333333336
              },
              "type": 11,
              "passShape": {
                "linestring": "127.056708,37.497600 127.054783,37.496969 127.053967,37.496708 127.052958,37.496389 127.052792,37.496336 127.051547,37.495919 127.049719,37.495308 127.047803,37.494644 127.046794,37.494294 127.045878,37.496253 127.044828,37.498503 127.044764,37.498636 127.044250,37.499728 127.044119,37.500000 127.042906,37.502572 127.042844,37.502708 127.041914,37.504725 127.041675,37.505239 127.041417,37.505717 127.041225,37.505983 127.038625,37.508642 127.038478,37.508675 127.038331,37.508708 127.037369,37.508428 127.035086,37.507756 127.033942,37.507419 127.033772,37.507369 127.031644,37.506733 127.025872,37.505011 127.025256,37.504828 127.024539,37.504614 127.023697,37.506369 127.021444,37.511069 127.021339,37.511119 127.021211,37.511153 127.019306,37.510578 127.014922,37.509250 127.012153,37.508419 127.009061,37.507492 127.008892,37.507442 127.005036,37.506303 127.004286,37.506083 127.003931,37.505969 127.003247,37.505758 127.002564,37.505544 127.001133,37.505097 127.000969,37.505036 127.000603,37.504883 127.000000,37.504708 126.995672,37.503472"
              }
            },
            {
              "mode": "WALK",
              "sectionTime": 723,
              "distance": 879,
              "start": {
                "name": "신반포역.세화여중고",
                "lon": 126.99566388888888,
                "lat": 37.503508333333336
              },
              "end": {
                "name": "도착지",
                "lon": 126.99418812417571,
                "lat": 37.5005732503054
              },
              "steps": [
                {
                  "streetName": "신반포로",
                  "distance": 42,
                  "description": "신반포로 을 따라 42m 이동",
                  "linestring": "126.99567,37.5035 126.99535,37.503414 126.995224,37.503372"
                },
                {
                  "streetName": "",
                  "distance": 26,
                  "description": "횡단보도 후 26m 이동 ",
                  "linestring": "126.995224,37.503372 126.99494,37.503296"
                },
                {
                  "streetName": "",
                  "distance": 40,
                  "description": "한신상가 에서 좌측 횡단보도 후 40m 이동 ",
                  "linestring": "126.99494,37.503296 126.99502,37.503143 126.99505,37.50305 126.995094,37.502953"
                },
                {
                  "streetName": "",
                  "distance": 107,
                  "description": "직진 후 107m 이동 ",
                  "linestring": "126.995094,37.502953 126.99516,37.502796 126.99526,37.502563 126.995445,37.502033"
                },
                {
                  "streetName": "",
                  "distance": 387,
                  "description": "우회전 후 387m 이동 ",
                  "linestring": "126.995445,37.502033 126.995445,37.50201 126.995445,37.50199 126.99513,37.501842 126.99486,37.501644 126.99475,37.501587 126.99472,37.501522 126.99461,37.50149 126.994514,37.50146 126.99357,37.501247 126.99211,37.500954 126.992035,37.50089 126.991905,37.500706 126.99182,37.50048"
                },
                {
                  "streetName": "",
                  "distance": 164,
                  "description": "좌회전 후 164m 이동 ",
                  "linestring": "126.99182,37.50048 126.991875,37.5005 126.99204,37.50074 126.992096,37.500786 126.99214,37.50078 126.99213,37.50065 126.99297,37.50035 126.99312,37.500347 126.99321,37.500378"
                },
                {
                  "streetName": "보행자도로",
                  "distance": 113,
                  "description": "우회전 후 보행자도로 을 따라 113m 이동 ",
                  "linestring": "126.99321,37.500378 126.99321,37.50036 126.9933,37.500237 126.993416,37.500153 126.99359,37.500103 126.9938,37.500103 126.99431,37.500214"
                }
              ]
            }
          ],
          "totalWalkTime": 984,
          "transferCount": 0,
          "totalDistance": 7454,
          "pathType": 2,
          "totalWalkDistance": 1242
        },
        {
          "fare": {
            "regular": {
              "totalFare": 1500,
              "currency": {
                "symbol": "￦",
                "currency": "원",
                "currencyCode": "KRW"
              }
            }
          },
          "totalTime": 2473,
          "legs": [
            {
              "mode": "WALK",
              "sectionTime": 261,
              "distance": 363,
              "start": {
                "name": "출발지",
                "lon": 127.05787679576707,
                "lat": 37.49971338235268
              },
              "end": {
                "name": "도곡초등학교",
                "lon": 127.05669444444445,
                "lat": 37.49763333333333
              },
              "steps": [
                {
                  "streetName": "",
                  "distance": 29,
                  "description": "29m 이동",
                  "linestring": "127.05806,37.49977 127.05818,37.499523"
                },
                {
                  "streetName": "보행자도로",
                  "distance": 142,
                  "description": "시에나 에서 우회전 후 보행자도로 을 따라 142m 이동 ",
                  "linestring": "127.05818,37.499523 127.05815,37.499474 127.058174,37.499424 127.0584,37.498974 127.05842,37.498943 127.05844,37.498894 127.058685,37.498432 127.058685,37.498344"
                },
                {
                  "streetName": "도곡로",
                  "distance": 192,
                  "description": "던킨도너츠 대치2점 에서 우회전 후 도곡로 을 따라 192m 이동 ",
                  "linestring": "127.058685,37.498344 127.05862,37.498318 127.057816,37.498074 127.05742,37.497944 127.05666,37.497696"
                }
              ]
            },
            {
              "mode": "BUS",
              "routeColor": "53B332",
              "sectionTime": 693,
              "route": "지선:4312",
              "routeId": "11927001",
              "distance": 1971,
              "service": 1,
              "start": {
                "name": "도곡초등학교",
                "lon": 127.05669444444445,
                "lat": 37.49763333333333
              },
              "passStopList": {
                "stationList": [
                  {
                    "index": 0,
                    "stationName": "도곡초등학교",
                    "lon": "127.056694",
                    "lat": "37.497633",
                    "stationID": "772459"
                  },
                  {
                    "index": 1,
                    "stationName": "한티역2번출구.서울강남고용노동지청",
                    "lon": "127.053961",
                    "lat": "37.496744",
                    "stationID": "772431"
                  },
                  {
                    "index": 2,
                    "stationName": "한티역",
                    "lon": "127.052108",
                    "lat": "37.498267",
                    "stationID": "772483"
                  },
                  {
                    "index": 3,
                    "stationName": "도성초등학교",
                    "lon": "127.051197",
                    "lat": "37.500158",
                    "stationID": "772554"
                  },
                  {
                    "index": 4,
                    "stationName": "진선여자중고등학교",
                    "lon": "127.049997",
                    "lat": "37.502714",
                    "stationID": "772642"
                  },
                  {
                    "index": 5,
                    "stationName": "선릉역8번출구.선정릉",
                    "lon": "127.048275",
                    "lat": "37.506231",
                    "stationID": "772755"
                  },
                  {
                    "index": 6,
                    "stationName": "선정릉역.무형문화재전수회관",
                    "lon": "127.044217",
                    "lat": "37.509717",
                    "stationID": "772857"
                  }
                ]
              },
              "end": {
                "name": "선정릉역.무형문화재전수회관",
                "lon": 127.04421666666667,
                "lat": 37.50971666666667
              },
              "type": 12,
              "passShape": {
                "linestring": "127.056708,37.497600 127.054783,37.496969 127.053967,37.496708 127.052958,37.496389 127.052064,37.498258 127.051231,37.500000 127.051164,37.500133 127.050978,37.500517 127.050914,37.500650 127.049958,37.502697 127.049142,37.504444 127.049078,37.504581 127.048586,37.505631 127.048336,37.506097 127.048231,37.506222 127.048003,37.506494 127.047794,37.506669 127.047519,37.506864 127.045325,37.508200 127.045069,37.508381 127.044631,37.508822 127.044447,37.509078 127.044331,37.509300 127.044172,37.509725"
              }
            },
            {
              "mode": "WALK",
              "sectionTime": 108,
              "distance": 111,
              "start": {
                "name": "선정릉역.무형문화재전수회관",
                "lon": 127.04421666666667,
                "lat": 37.50971666666667
              },
              "end": {
                "name": "선정릉",
                "lon": 127.04335555555555,
                "lat": 37.51011666666667
              },
              "passShape": {
                "linestring": "127.044217,37.509717 127.044108,37.509967 127.044081,37.510053 127.044067,37.510100 127.044083,37.510133 127.043767,37.510056 127.043742,37.510064 127.043678,37.510078 127.043356,37.510117"
              }
            },
            {
              "mode": "SUBWAY",
              "routeColor": "BDB092",
              "sectionTime": 635,
              "route": "수도권9호선",
              "routeId": "110091027",
              "distance": 4334,
              "service": 1,
              "start": {
                "name": "선정릉",
                "lon": 127.04335555555555,
                "lat": 37.51011666666667
              },
              "passStopList": {
                "stationList": [
                  {
                    "index": 0,
                    "stationName": "선정릉",
                    "lon": "127.043356",
                    "lat": "37.510117",
                    "stationID": "110927"
                  },
                  {
                    "index": 1,
                    "stationName": "언주",
                    "lon": "127.033886",
                    "lat": "37.507317",
                    "stationID": "110926"
                  },
                  {
                    "index": 2,
                    "stationName": "신논현",
                    "lon": "127.025422",
                    "lat": "37.504753",
                    "stationID": "110925"
                  },
                  {
                    "index": 3,
                    "stationName": "사평",
                    "lon": "127.015231",
                    "lat": "37.504286",
                    "stationID": "110924"
                  },
                  {
                    "index": 4,
                    "stationName": "고속터미널",
                    "lon": "127.004347",
                    "lat": "37.506011",
                    "stationID": "110923"
                  },
                  {
                    "index": 5,
                    "stationName": "신반포",
                    "lon": "126.996353",
                    "lat": "37.503586",
                    "stationID": "110922"
                  }
                ]
              },
              "end": {
                "name": "신반포",
                "lon": 126.99635277777777,
                "lat": 37.50358611111111
              },
              "type": 9,
              "passShape": {
                "linestring": "127.043356,37.510119 127.033728,37.507269 127.031650,37.506653 127.027617,37.505414 127.025536,37.504775 127.025428,37.504742 127.022200,37.503750 127.020583,37.503294 127.020078,37.503153 127.019922,37.503117 127.019767,37.503086 127.019608,37.503058 127.019453,37.503039 127.019292,37.503022 127.019133,37.503011 127.018972,37.503006 127.018811,37.503006 127.018650,37.503011 127.018492,37.503019 127.018331,37.503036 127.018175,37.503056 127.018017,37.503083 127.017861,37.503114 127.017706,37.503150 127.017553,37.503189 127.017403,37.503233 127.017267,37.503281 127.017256,37.503283 127.017111,37.503339 127.016969,37.503400 127.016831,37.503464 127.015864,37.503981 127.015456,37.504192 127.015242,37.504300 127.015011,37.504408 127.014139,37.504689 127.013347,37.504900 127.013278,37.504917 127.013206,37.504936 127.013136,37.504953 127.013067,37.504972 127.012994,37.504992 127.012928,37.505011 127.012856,37.505031 127.012789,37.505050 127.012717,37.505069 127.012650,37.505092 127.012581,37.505111 127.012511,37.505133 127.012442,37.505153 127.012375,37.505175 127.012306,37.505197 127.012239,37.505219 127.012169,37.505242 127.012103,37.505267 127.012033,37.505289 127.011967,37.505314 127.011900,37.505336 127.009158,37.506389 127.009119,37.506403 127.008983,37.506450 127.008844,37.506492 127.008706,37.506528 127.008564,37.506564 127.008419,37.506592 127.008275,37.506619 127.008131,37.506642 127.007983,37.506661 127.007836,37.506675 127.007689,37.506683 127.007542,37.506692 127.007392,37.506694 127.007244,37.506692 127.007094,37.506686 127.006947,37.506675 127.006800,37.506661 127.006656,37.506644 127.006508,37.506619 127.006364,37.506594 127.006219,37.506564 127.006078,37.506531 127.004622,37.506131 127.004397,37.506047 127.004339,37.506025 127.003822,37.505836 127.002619,37.505450 126.999683,37.504556 126.999047,37.504367 126.996167,37.503533"
              }
            },
            {
              "mode": "WALK",
              "sectionTime": 776,
              "distance": 929,
              "start": {
                "name": "신반포",
                "lon": 126.99635277777777,
                "lat": 37.50358611111111
              },
              "end": {
                "name": "도착지",
                "lon": 126.99418812417571,
                "lat": 37.5005732503054
              },
              "steps": [
                {
                  "streetName": "",
                  "distance": 17,
                  "description": "17m 이동",
                  "linestring": "126.996376,37.503525 126.9962,37.50347"
                },
                {
                  "streetName": "",
                  "distance": 39,
                  "description": "신반포역  4번출구 에서 좌회전 후 39m 이동 ",
                  "linestring": "126.9962,37.50347 126.996254,37.503338 126.99603,37.50327 126.99602,37.503258"
                },
                {
                  "streetName": "",
                  "distance": 50,
                  "description": "신반포역  4번출구 에서 직진 후 50m 이동 ",
                  "linestring": "126.99602,37.503258 126.995476,37.503105"
                },
                {
                  "streetName": "신반포로",
                  "distance": 15,
                  "description": "좌회전 후 신반포로 을 따라 15m 이동 ",
                  "linestring": "126.995476,37.503105 126.99541,37.503086 126.99538,37.503044 126.995384,37.50302"
                },
                {
                  "streetName": "",
                  "distance": 37,
                  "description": "우측 횡단보도 후 37m 이동 ",
                  "linestring": "126.99575,37.502083 126.99565,37.501945 126.99555,37.5018"
                },
                {
                  "streetName": "",
                  "distance": 384,
                  "description": "우회전 후 384m 이동 ",
                  "linestring": "126.99555,37.5018 126.995544,37.50182 126.99552,37.501827 126.99529,37.501778 126.99516,37.50175 126.99489,37.50155 126.99481,37.501514 126.99472,37.501522 126.99461,37.50149 126.994514,37.50146 126.99357,37.501247 126.99211,37.500954 126.992035,37.50089 126.991905,37.500706 126.99182,37.50048"
                },
                {
                  "streetName": "",
                  "distance": 164,
                  "description": "좌회전 후 164m 이동 ",
                  "linestring": "126.99182,37.50048 126.991875,37.5005 126.99204,37.50074 126.992096,37.500786 126.99214,37.50078 126.99213,37.50065 126.99297,37.50035 126.99312,37.500347 126.99321,37.500378"
                },
                {
                  "streetName": "보행자도로",
                  "distance": 113,
                  "description": "우회전 후 보행자도로 을 따라 113m 이동 ",
                  "linestring": "126.99321,37.500378 126.99321,37.50036 126.9933,37.500237 126.993416,37.500153 126.99359,37.500103 126.9938,37.500103 126.99431,37.500214"
                }
              ]
            }
          ],
          "totalWalkTime": 1145,
          "transferCount": 1,
          "totalDistance": 7058,
          "pathType": 3,
          "totalWalkDistance": 1403
        },
        {
          "fare": {
            "regular": {
              "totalFare": 1500,
              "currency": {
                "symbol": "￦",
                "currency": "원",
                "currencyCode": "KRW"
              }
            }
          },
          "totalTime": 2708,
          "legs": [
            {
              "mode": "WALK",
              "sectionTime": 352,
              "distance": 452,
              "start": {
                "name": "출발지",
                "lon": 127.05787679576707,
                "lat": 37.49971338235268
              },
              "end": {
                "name": "대치현대아파트",
                "lon": 127.05996666666667,
                "lat": 37.500972222222224
              },
              "steps": [
                {
                  "streetName": "",
                  "distance": 29,
                  "description": "29m 이동",
                  "linestring": "127.05806,37.49977 127.05818,37.499523"
                },
                {
                  "streetName": "",
                  "distance": 5,
                  "description": "시에나 에서 8시 방향 좌회전 후 5m 이동 ",
                  "linestring": "127.05818,37.499523 127.05821,37.49956"
                },
                {
                  "streetName": "보행자도로",
                  "distance": 148,
                  "description": "신라 에서 2시 방향 우회전 후 보행자도로 을 따라 148m 이동 ",
                  "linestring": "127.05821,37.49956 127.05828,37.499588 127.058784,37.49977 127.05904,37.49986 127.05911,37.499874 127.05915,37.49988 127.05944,37.499985 127.05975,37.50008"
                },
                {
                  "streetName": "보행자도로",
                  "distance": 38,
                  "description": "우측 횡단보도 후 보행자도로 을 따라 38m 이동 ",
                  "linestring": "127.05931,37.501396 127.059715,37.50153"
                },
                {
                  "streetName": "삼성로",
                  "distance": 66,
                  "description": "세븐일레븐 에서 우회전 후 삼성로 을 따라 66m 이동 ",
                  "linestring": "127.059715,37.50153 127.05978,37.5014 127.0598,37.501354 127.05983,37.501293 127.05992,37.50111 127.05998,37.500977"
                }
              ]
            },
            {
              "routeColor": "0068B7",
              "distance": 1754,
              "start": {
                "name": "대치현대아파트",
                "lon": 127.05996666666667,
                "lat": 37.500972222222224
              },
              "Lane": [
                {
                  "routeColor": "53B332",
                  "route": "지선:2413",
                  "routeId": "11559001",
                  "service": 1,
                  "type": 12
                }
              ],
              "type": 11,
              "mode": "BUS",
              "sectionTime": 571,
              "route": "간선:143",
              "routeId": "11432001",
              "service": 1,
              "passStopList": {
                "stationList": [
                  {
                    "index": 0,
                    "stationName": "대치현대아파트",
                    "lon": "127.059967",
                    "lat": "37.500972",
                    "stationID": "772578"
                  },
                  {
                    "index": 1,
                    "stationName": "휘문중고등학교",
                    "lon": "127.061797",
                    "lat": "37.504022",
                    "stationID": "772686"
                  },
                  {
                    "index": 2,
                    "stationName": "삼성역",
                    "lon": "127.064208",
                    "lat": "37.507208",
                    "stationID": "772781"
                  },
                  {
                    "index": 3,
                    "stationName": "삼성역7번출구",
                    "lon": "127.062678",
                    "lat": "37.510233",
                    "stationID": "772871"
                  },
                  {
                    "index": 4,
                    "stationName": "봉은사역3번출구.삼성1파출소",
                    "lon": "127.060047",
                    "lat": "37.515258",
                    "stationID": "773039"
                  }
                ]
              },
              "end": {
                "name": "봉은사역3번출구.삼성1파출소",
                "lon": 127.06004722222222,
                "lat": 37.515258333333335
              },
              "passShape": {
                "linestring": "127.059914,37.500917 127.058764,37.503067 127.061761,37.504044 127.065100,37.505133 127.065194,37.505322 127.064850,37.505942 127.064167,37.507197 127.063533,37.508364 127.063275,37.508844 127.063203,37.508978 127.062883,37.509569 127.062547,37.510200 127.060628,37.513794 127.060358,37.514214 127.060283,37.514347 127.059944,37.514994 127.059831,37.515206"
              }
            },
            {
              "mode": "WALK",
              "sectionTime": 141,
              "distance": 116,
              "start": {
                "name": "봉은사역3번출구.삼성1파출소",
                "lon": 127.06004722222222,
                "lat": 37.515258333333335
              },
              "end": {
                "name": "봉은사",
                "lon": 127.06020555555556,
                "lat": 37.51423888888889
              },
              "passShape": {
                "linestring": "127.060047,37.515258 127.060153,37.515011 127.060167,37.514986 127.060214,37.514903 127.060250,37.514836 127.060289,37.514767 127.060433,37.514514 127.060206,37.514239"
              }
            },
            {
              "mode": "SUBWAY",
              "routeColor": "BDB092",
              "sectionTime": 868,
              "route": "수도권9호선",
              "routeId": "110091027",
              "distance": 5895,
              "service": 1,
              "start": {
                "name": "봉은사",
                "lon": 127.06020555555556,
                "lat": 37.51423888888889
              },
              "passStopList": {
                "stationList": [
                  {
                    "index": 0,
                    "stationName": "봉은사",
                    "lon": "127.060206",
                    "lat": "37.514239",
                    "stationID": "110929"
                  },
                  {
                    "index": 1,
                    "stationName": "삼성중앙",
                    "lon": "127.052867",
                    "lat": "37.512883",
                    "stationID": "110928"
                  },
                  {
                    "index": 2,
                    "stationName": "선정릉",
                    "lon": "127.043356",
                    "lat": "37.510117",
                    "stationID": "110927"
                  },
                  {
                    "index": 3,
                    "stationName": "언주",
                    "lon": "127.033886",
                    "lat": "37.507317",
                    "stationID": "110926"
                  },
                  {
                    "index": 4,
                    "stationName": "신논현",
                    "lon": "127.025422",
                    "lat": "37.504753",
                    "stationID": "110925"
                  },
                  {
                    "index": 5,
                    "stationName": "사평",
                    "lon": "127.015231",
                    "lat": "37.504286",
                    "stationID": "110924"
                  },
                  {
                    "index": 6,
                    "stationName": "고속터미널",
                    "lon": "127.004347",
                    "lat": "37.506011",
                    "stationID": "110923"
                  },
                  {
                    "index": 7,
                    "stationName": "신반포",
                    "lon": "126.996353",
                    "lat": "37.503586",
                    "stationID": "110922"
                  }
                ]
              },
              "end": {
                "name": "신반포",
                "lon": 126.99635277777777,
                "lat": 37.50358611111111
              },
              "type": 9,
              "passShape": {
                "linestring": "127.060206,37.514244 127.059703,37.514158 127.054319,37.513228 127.054100,37.513189 127.053769,37.513128 127.053083,37.512981 127.052975,37.512956 127.052850,37.512925 127.052814,37.512917 127.047392,37.511314 127.045286,37.510692 127.043883,37.510278 127.043356,37.510119 127.033728,37.507269 127.031650,37.506653 127.027617,37.505414 127.025536,37.504775 127.025428,37.504742 127.022200,37.503750 127.020583,37.503294 127.020078,37.503153 127.019922,37.503117 127.019767,37.503086 127.019608,37.503058 127.019453,37.503039 127.019292,37.503022 127.019133,37.503011 127.018972,37.503006 127.018811,37.503006 127.018650,37.503011 127.018492,37.503019 127.018331,37.503036 127.018175,37.503056 127.018017,37.503083 127.017861,37.503114 127.017706,37.503150 127.017553,37.503189 127.017403,37.503233 127.017267,37.503281 127.017256,37.503283 127.017111,37.503339 127.016969,37.503400 127.016831,37.503464 127.015864,37.503981 127.015456,37.504192 127.015242,37.504300 127.015011,37.504408 127.014139,37.504689 127.013347,37.504900 127.013278,37.504917 127.013206,37.504936 127.013136,37.504953 127.013067,37.504972 127.012994,37.504992 127.012928,37.505011 127.012856,37.505031 127.012789,37.505050 127.012717,37.505069 127.012650,37.505092 127.012581,37.505111 127.012511,37.505133 127.012442,37.505153 127.012375,37.505175 127.012306,37.505197 127.012239,37.505219 127.012169,37.505242 127.012103,37.505267 127.012033,37.505289 127.011967,37.505314 127.011900,37.505336 127.009158,37.506389 127.009119,37.506403 127.008983,37.506450 127.008844,37.506492 127.008706,37.506528 127.008564,37.506564 127.008419,37.506592 127.008275,37.506619 127.008131,37.506642 127.007983,37.506661 127.007836,37.506675 127.007689,37.506683 127.007542,37.506692 127.007392,37.506694 127.007244,37.506692 127.007094,37.506686 127.006947,37.506675 127.006800,37.506661 127.006656,37.506644 127.006508,37.506619 127.006364,37.506594 127.006219,37.506564 127.006078,37.506531 127.004622,37.506131 127.004397,37.506047 127.004339,37.506025 127.003822,37.505836 127.002619,37.505450 126.999683,37.504556 126.999047,37.504367 126.996167,37.503533"
              }
            },
            {
              "mode": "WALK",
              "sectionTime": 776,
              "distance": 929,
              "start": {
                "name": "신반포",
                "lon": 126.99635277777777,
                "lat": 37.50358611111111
              },
              "end": {
                "name": "도착지",
                "lon": 126.99418812417571,
                "lat": 37.5005732503054
              },
              "steps": [
                {
                  "streetName": "",
                  "distance": 17,
                  "description": "17m 이동",
                  "linestring": "126.996376,37.503525 126.9962,37.50347"
                },
                {
                  "streetName": "",
                  "distance": 39,
                  "description": "신반포역  4번출구 에서 좌회전 후 39m 이동 ",
                  "linestring": "126.9962,37.50347 126.996254,37.503338 126.99603,37.50327 126.99602,37.503258"
                },
                {
                  "streetName": "",
                  "distance": 50,
                  "description": "신반포역  4번출구 에서 직진 후 50m 이동 ",
                  "linestring": "126.99602,37.503258 126.995476,37.503105"
                },
                {
                  "streetName": "신반포로",
                  "distance": 15,
                  "description": "좌회전 후 신반포로 을 따라 15m 이동 ",
                  "linestring": "126.995476,37.503105 126.99541,37.503086 126.99538,37.503044 126.995384,37.50302"
                },
                {
                  "streetName": "",
                  "distance": 37,
                  "description": "우측 횡단보도 후 37m 이동 ",
                  "linestring": "126.99575,37.502083 126.99565,37.501945 126.99555,37.5018"
                },
                {
                  "streetName": "",
                  "distance": 384,
                  "description": "우회전 후 384m 이동 ",
                  "linestring": "126.99555,37.5018 126.995544,37.50182 126.99552,37.501827 126.99529,37.501778 126.99516,37.50175 126.99489,37.50155 126.99481,37.501514 126.99472,37.501522 126.99461,37.50149 126.994514,37.50146 126.99357,37.501247 126.99211,37.500954 126.992035,37.50089 126.991905,37.500706 126.99182,37.50048"
                },
                {
                  "streetName": "",
                  "distance": 164,
                  "description": "좌회전 후 164m 이동 ",
                  "linestring": "126.99182,37.50048 126.991875,37.5005 126.99204,37.50074 126.992096,37.500786 126.99214,37.50078 126.99213,37.50065 126.99297,37.50035 126.99312,37.500347 126.99321,37.500378"
                },
                {
                  "streetName": "보행자도로",
                  "distance": 113,
                  "description": "우회전 후 보행자도로 을 따라 113m 이동 ",
                  "linestring": "126.99321,37.500378 126.99321,37.50036 126.9933,37.500237 126.993416,37.500153 126.99359,37.500103 126.9938,37.500103 126.99431,37.500214"
                }
              ]
            }
          ],
          "totalWalkTime": 1269,
          "transferCount": 1,
          "totalDistance": 8384,
          "pathType": 3,
          "totalWalkDistance": 1497
        },
        {
          "fare": {
            "regular": {
              "totalFare": 1500,
              "currency": {
                "symbol": "￦",
                "currency": "원",
                "currencyCode": "KRW"
              }
            }
          },
          "totalTime": 3225,
          "legs": [
            {
              "mode": "WALK",
              "sectionTime": 261,
              "distance": 363,
              "start": {
                "name": "출발지",
                "lon": 127.05787679576707,
                "lat": 37.49971338235268
              },
              "end": {
                "name": "도곡초등학교",
                "lon": 127.05669444444445,
                "lat": 37.49763333333333
              },
              "steps": [
                {
                  "streetName": "",
                  "distance": 29,
                  "description": "29m 이동",
                  "linestring": "127.05806,37.49977 127.05818,37.499523"
                },
                {
                  "streetName": "보행자도로",
                  "distance": 142,
                  "description": "시에나 에서 우회전 후 보행자도로 을 따라 142m 이동 ",
                  "linestring": "127.05818,37.499523 127.05815,37.499474 127.058174,37.499424 127.0584,37.498974 127.05842,37.498943 127.05844,37.498894 127.058685,37.498432 127.058685,37.498344"
                },
                {
                  "streetName": "도곡로",
                  "distance": 192,
                  "description": "던킨도너츠 대치2점 에서 우회전 후 도곡로 을 따라 192m 이동 ",
                  "linestring": "127.058685,37.498344 127.05862,37.498318 127.057816,37.498074 127.05742,37.497944 127.05666,37.497696"
                }
              ]
            },
            {
              "mode": "BUS",
              "routeColor": "0068B7",
              "sectionTime": 947,
              "route": "간선:461",
              "routeId": "11854001",
              "distance": 2901,
              "service": 1,
              "start": {
                "name": "도곡초등학교",
                "lon": 127.05669444444445,
                "lat": 37.49763333333333
              },
              "passStopList": {
                "stationList": [
                  {
                    "index": 0,
                    "stationName": "도곡초등학교",
                    "lon": "127.056694",
                    "lat": "37.497633",
                    "stationID": "772459"
                  },
                  {
                    "index": 1,
                    "stationName": "한티역2번출구.서울강남고용노동지청",
                    "lon": "127.053961",
                    "lat": "37.496744",
                    "stationID": "772431"
                  },
                  {
                    "index": 2,
                    "stationName": "한티역7번출구",
                    "lon": "127.051522",
                    "lat": "37.495989",
                    "stationID": "772409"
                  },
                  {
                    "index": 3,
                    "stationName": "역삼중학교.강남세브란스병원",
                    "lon": "127.047789",
                    "lat": "37.494678",
                    "stationID": "772361"
                  },
                  {
                    "index": 4,
                    "stationName": "도곡1차아이파크.역삼청소년수련관",
                    "lon": "127.041817",
                    "lat": "37.492800",
                    "stationID": "772291"
                  },
                  {
                    "index": 5,
                    "stationName": "역삼럭키아파트.역삼월드메르디앙아파트",
                    "lon": "127.038631",
                    "lat": "37.491817",
                    "stationID": "772244"
                  },
                  {
                    "index": 6,
                    "stationName": "뱅뱅사거리.역삼동",
                    "lon": "127.033667",
                    "lat": "37.490306",
                    "stationID": "772187"
                  },
                  {
                    "index": 7,
                    "stationName": "뱅뱅사거리",
                    "lon": "127.029339",
                    "lat": "37.488983",
                    "stationID": "772142"
                  },
                  {
                    "index": 8,
                    "stationName": "서초그랑자이아파트",
                    "lon": "127.026194",
                    "lat": "37.488019",
                    "stationID": "772105"
                  }
                ]
              },
              "end": {
                "name": "서초그랑자이아파트",
                "lon": 127.02619444444444,
                "lat": 37.48801944444445
              },
              "type": 11,
              "passShape": {
                "linestring": "127.056708,37.497600 127.054783,37.496969 127.053967,37.496708 127.052958,37.496389 127.052792,37.496336 127.051547,37.495919 127.049719,37.495308 127.047803,37.494644 127.046794,37.494294 127.046622,37.494247 127.046356,37.494192 127.041831,37.492767 127.040947,37.492489 127.040778,37.492436 127.038658,37.491786 127.036753,37.491203 127.034733,37.490606 127.033678,37.490269 127.032847,37.490006 127.031731,37.489681 127.031692,37.489669 127.031522,37.489619 127.031478,37.489606 127.029372,37.488958 127.028308,37.488633 127.028139,37.488581 127.026197,37.487983"
              }
            },
            {
              "mode": "WALK",
              "sectionTime": 0,
              "distance": 0,
              "start": {
                "name": "서초그랑자이아파트",
                "lon": 127.02619444444444,
                "lat": 37.48801944444445
              },
              "end": {
                "name": "서초그랑자이아파트",
                "lon": 127.02619444444444,
                "lat": 37.48801944444445
              },
              "passShape": {
                "linestring": "127.026194,37.488019 127.026194,37.488019"
              }
            },
            {
              "mode": "BUS",
              "routeColor": "53B332",
              "sectionTime": 1294,
              "route": "지선:3420",
              "routeId": "1906001",
              "distance": 4442,
              "service": 1,
              "start": {
                "name": "서초그랑자이아파트",
                "lon": 127.02619444444444,
                "lat": 37.48801944444445
              },
              "passStopList": {
                "stationList": [
                  {
                    "index": 0,
                    "stationName": "서초그랑자이아파트",
                    "lon": "127.026194",
                    "lat": "37.488019",
                    "stationID": "772105"
                  },
                  {
                    "index": 1,
                    "stationName": "서일초등학교",
                    "lon": "127.021358",
                    "lat": "37.486528",
                    "stationID": "772064"
                  },
                  {
                    "index": 2,
                    "stationName": "국제전자센터",
                    "lon": "127.017844",
                    "lat": "37.485444",
                    "stationID": "772016"
                  },
                  {
                    "index": 3,
                    "stationName": "서울교대사거리",
                    "lon": "127.015033",
                    "lat": "37.487392",
                    "stationID": "772089"
                  },
                  {
                    "index": 4,
                    "stationName": "교대역13번출구",
                    "lon": "127.014189",
                    "lat": "37.491925",
                    "stationID": "772246"
                  },
                  {
                    "index": 5,
                    "stationName": "법조단지",
                    "lon": "127.013203",
                    "lat": "37.496458",
                    "stationID": "772426"
                  },
                  {
                    "index": 6,
                    "stationName": "디에이치반포라클라스",
                    "lon": "127.012428",
                    "lat": "37.499753",
                    "stationID": "772540"
                  },
                  {
                    "index": 7,
                    "stationName": "삼호가든사거리.반포도서관",
                    "lon": "127.011558",
                    "lat": "37.502867",
                    "stationID": "772656"
                  },
                  {
                    "index": 8,
                    "stationName": "고속터미널(중)",
                    "lon": "127.005056",
                    "lat": "37.506289",
                    "stationID": "772760"
                  },
                  {
                    "index": 9,
                    "stationName": "신반포역.세화여중고",
                    "lon": "126.995664",
                    "lat": "37.503508",
                    "stationID": "753743"
                  }
                ]
              },
              "end": {
                "name": "신반포역.세화여중고",
                "lon": 126.99566388888888,
                "lat": 37.503508333333336
              },
              "type": 12,
              "passShape": {
                "linestring": "127.026197,37.487983 127.021392,37.486503 127.017878,37.485419 127.017778,37.485389 127.016361,37.485117 127.015253,37.486842 127.015053,37.487225 127.014989,37.487389 127.014831,37.487789 127.014772,37.487992 127.014708,37.488344 127.014683,37.488489 127.014208,37.491289 127.014108,37.491867 127.014103,37.491903 127.013797,37.493667 127.013767,37.493811 127.013681,37.494183 127.013353,37.495642 127.013161,37.496447 127.013008,37.497092 127.012389,37.499736 127.012325,37.500000 127.011908,37.501919 127.011683,37.502533 127.011619,37.502672 127.011528,37.502839 127.010506,37.504700 127.010433,37.504836 127.010272,37.505178 127.009758,37.506256 127.009306,37.507097 127.009144,37.507364 127.009047,37.507422 127.008892,37.507442 127.005036,37.506303 127.004286,37.506083 127.003931,37.505969 127.003247,37.505758 127.002564,37.505544 127.001133,37.505097 127.000969,37.505036 127.000603,37.504883 127.000000,37.504708 126.995672,37.503472"
              }
            },
            {
              "mode": "WALK",
              "sectionTime": 723,
              "distance": 879,
              "start": {
                "name": "신반포역.세화여중고",
                "lon": 126.99566388888888,
                "lat": 37.503508333333336
              },
              "end": {
                "name": "도착지",
                "lon": 126.99418812417571,
                "lat": 37.5005732503054
              },
              "steps": [
                {
                  "streetName": "신반포로",
                  "distance": 42,
                  "description": "신반포로 을 따라 42m 이동",
                  "linestring": "126.99567,37.5035 126.99535,37.503414 126.995224,37.503372"
                },
                {
                  "streetName": "",
                  "distance": 26,
                  "description": "횡단보도 후 26m 이동 ",
                  "linestring": "126.995224,37.503372 126.99494,37.503296"
                },
                {
                  "streetName": "",
                  "distance": 40,
                  "description": "한신상가 에서 좌측 횡단보도 후 40m 이동 ",
                  "linestring": "126.99494,37.503296 126.99502,37.503143 126.99505,37.50305 126.995094,37.502953"
                },
                {
                  "streetName": "",
                  "distance": 107,
                  "description": "직진 후 107m 이동 ",
                  "linestring": "126.995094,37.502953 126.99516,37.502796 126.99526,37.502563 126.995445,37.502033"
                },
                {
                  "streetName": "",
                  "distance": 387,
                  "description": "우회전 후 387m 이동 ",
                  "linestring": "126.995445,37.502033 126.995445,37.50201 126.995445,37.50199 126.99513,37.501842 126.99486,37.501644 126.99475,37.501587 126.99472,37.501522 126.99461,37.50149 126.994514,37.50146 126.99357,37.501247 126.99211,37.500954 126.992035,37.50089 126.991905,37.500706 126.99182,37.50048"
                },
                {
                  "streetName": "",
                  "distance": 164,
                  "description": "좌회전 후 164m 이동 ",
                  "linestring": "126.99182,37.50048 126.991875,37.5005 126.99204,37.50074 126.992096,37.500786 126.99214,37.50078 126.99213,37.50065 126.99297,37.50035 126.99312,37.500347 126.99321,37.500378"
                },
                {
                  "streetName": "보행자도로",
                  "distance": 113,
                  "description": "우회전 후 보행자도로 을 따라 113m 이동 ",
                  "linestring": "126.99321,37.500378 126.99321,37.50036 126.9933,37.500237 126.993416,37.500153 126.99359,37.500103 126.9938,37.500103 126.99431,37.500214"
                }
              ]
            }
          ],
          "totalWalkTime": 984,
          "transferCount": 1,
          "totalDistance": 7950,
          "pathType": 2,
          "totalWalkDistance": 1242
        },
        {
          "fare": {
            "regular": {
              "totalFare": 1500,
              "currency": {
                "symbol": "￦",
                "currency": "원",
                "currencyCode": "KRW"
              }
            }
          },
          "totalTime": 3225,
          "legs": [
            {
              "mode": "WALK",
              "sectionTime": 261,
              "distance": 363,
              "start": {
                "name": "출발지",
                "lon": 127.05787679576707,
                "lat": 37.49971338235268
              },
              "end": {
                "name": "도곡초등학교",
                "lon": 127.05669444444445,
                "lat": 37.49763333333333
              },
              "steps": [
                {
                  "streetName": "",
                  "distance": 29,
                  "description": "29m 이동",
                  "linestring": "127.05806,37.49977 127.05818,37.499523"
                },
                {
                  "streetName": "보행자도로",
                  "distance": 142,
                  "description": "시에나 에서 우회전 후 보행자도로 을 따라 142m 이동 ",
                  "linestring": "127.05818,37.499523 127.05815,37.499474 127.058174,37.499424 127.0584,37.498974 127.05842,37.498943 127.05844,37.498894 127.058685,37.498432 127.058685,37.498344"
                },
                {
                  "streetName": "도곡로",
                  "distance": 192,
                  "description": "던킨도너츠 대치2점 에서 우회전 후 도곡로 을 따라 192m 이동 ",
                  "linestring": "127.058685,37.498344 127.05862,37.498318 127.057816,37.498074 127.05742,37.497944 127.05666,37.497696"
                }
              ]
            },
            {
              "routeColor": "0068B7",
              "distance": 2603,
              "start": {
                "name": "도곡초등학교",
                "lon": 127.05669444444445,
                "lat": 37.49763333333333
              },
              "Lane": [
                {
                  "routeColor": "0068B7",
                  "route": "간선:461",
                  "routeId": "11854001",
                  "service": 1,
                  "type": 11
                }
              ],
              "type": 11,
              "mode": "BUS",
              "sectionTime": 838,
              "route": "간선:340",
              "routeId": "11913001",
              "service": 1,
              "passStopList": {
                "stationList": [
                  {
                    "index": 0,
                    "stationName": "도곡초등학교",
                    "lon": "127.056694",
                    "lat": "37.497633",
                    "stationID": "772459"
                  },
                  {
                    "index": 1,
                    "stationName": "한티역2번출구.서울강남고용노동지청",
                    "lon": "127.053961",
                    "lat": "37.496744",
                    "stationID": "772431"
                  },
                  {
                    "index": 2,
                    "stationName": "한티역7번출구",
                    "lon": "127.051522",
                    "lat": "37.495989",
                    "stationID": "772409"
                  },
                  {
                    "index": 3,
                    "stationName": "역삼중학교.강남세브란스병원",
                    "lon": "127.047789",
                    "lat": "37.494678",
                    "stationID": "772361"
                  },
                  {
                    "index": 4,
                    "stationName": "도곡1차아이파크.역삼청소년수련관",
                    "lon": "127.041817",
                    "lat": "37.492800",
                    "stationID": "772291"
                  },
                  {
                    "index": 5,
                    "stationName": "역삼럭키아파트.역삼월드메르디앙아파트",
                    "lon": "127.038631",
                    "lat": "37.491817",
                    "stationID": "772244"
                  },
                  {
                    "index": 6,
                    "stationName": "뱅뱅사거리.역삼동",
                    "lon": "127.033667",
                    "lat": "37.490306",
                    "stationID": "772187"
                  },
                  {
                    "index": 7,
                    "stationName": "뱅뱅사거리",
                    "lon": "127.029339",
                    "lat": "37.488983",
                    "stationID": "772142"
                  }
                ]
              },
              "end": {
                "name": "뱅뱅사거리",
                "lon": 127.02933888888889,
                "lat": 37.48898333333333
              },
              "passShape": {
                "linestring": "127.056708,37.497600 127.054783,37.496969 127.053967,37.496708 127.052958,37.496389 127.052792,37.496336 127.051547,37.495919 127.049719,37.495308 127.047803,37.494644 127.046794,37.494294 127.046622,37.494247 127.046356,37.494192 127.041831,37.492767 127.040947,37.492489 127.040778,37.492436 127.038658,37.491786 127.036753,37.491203 127.034733,37.490606 127.033678,37.490269 127.032847,37.490006 127.031731,37.489681 127.031692,37.489669 127.031522,37.489619 127.031478,37.489606 127.029372,37.488958"
              }
            },
            {
              "mode": "WALK",
              "sectionTime": 0,
              "distance": 0,
              "start": {
                "name": "뱅뱅사거리",
                "lon": 127.02933888888889,
                "lat": 37.48898333333333
              },
              "end": {
                "name": "뱅뱅사거리",
                "lon": 127.02933888888889,
                "lat": 37.48898333333333
              },
              "passShape": {
                "linestring": "127.029339,37.488983 127.029339,37.488983"
              }
            },
            {
              "mode": "BUS",
              "routeColor": "53B332",
              "sectionTime": 1403,
              "route": "지선:3420",
              "routeId": "1906001",
              "distance": 4740,
              "service": 1,
              "start": {
                "name": "뱅뱅사거리",
                "lon": 127.02933888888889,
                "lat": 37.48898333333333
              },
              "passStopList": {
                "stationList": [
                  {
                    "index": 0,
                    "stationName": "뱅뱅사거리",
                    "lon": "127.029339",
                    "lat": "37.488983",
                    "stationID": "772142"
                  },
                  {
                    "index": 1,
                    "stationName": "서초그랑자이아파트",
                    "lon": "127.026194",
                    "lat": "37.488019",
                    "stationID": "772105"
                  },
                  {
                    "index": 2,
                    "stationName": "서일초등학교",
                    "lon": "127.021358",
                    "lat": "37.486528",
                    "stationID": "772064"
                  },
                  {
                    "index": 3,
                    "stationName": "국제전자센터",
                    "lon": "127.017844",
                    "lat": "37.485444",
                    "stationID": "772016"
                  },
                  {
                    "index": 4,
                    "stationName": "서울교대사거리",
                    "lon": "127.015033",
                    "lat": "37.487392",
                    "stationID": "772089"
                  },
                  {
                    "index": 5,
                    "stationName": "교대역13번출구",
                    "lon": "127.014189",
                    "lat": "37.491925",
                    "stationID": "772246"
                  },
                  {
                    "index": 6,
                    "stationName": "법조단지",
                    "lon": "127.013203",
                    "lat": "37.496458",
                    "stationID": "772426"
                  },
                  {
                    "index": 7,
                    "stationName": "디에이치반포라클라스",
                    "lon": "127.012428",
                    "lat": "37.499753",
                    "stationID": "772540"
                  },
                  {
                    "index": 8,
                    "stationName": "삼호가든사거리.반포도서관",
                    "lon": "127.011558",
                    "lat": "37.502867",
                    "stationID": "772656"
                  },
                  {
                    "index": 9,
                    "stationName": "고속터미널(중)",
                    "lon": "127.005056",
                    "lat": "37.506289",
                    "stationID": "772760"
                  },
                  {
                    "index": 10,
                    "stationName": "신반포역.세화여중고",
                    "lon": "126.995664",
                    "lat": "37.503508",
                    "stationID": "753743"
                  }
                ]
              },
              "end": {
                "name": "신반포역.세화여중고",
                "lon": 126.99566388888888,
                "lat": 37.503508333333336
              },
              "type": 12,
              "passShape": {
                "linestring": "127.029372,37.488958 127.028308,37.488633 127.028139,37.488581 127.026197,37.487983 127.021392,37.486503 127.017878,37.485419 127.017778,37.485389 127.016361,37.485117 127.015253,37.486842 127.015053,37.487225 127.014989,37.487389 127.014831,37.487789 127.014772,37.487992 127.014708,37.488344 127.014683,37.488489 127.014208,37.491289 127.014108,37.491867 127.014103,37.491903 127.013797,37.493667 127.013767,37.493811 127.013681,37.494183 127.013353,37.495642 127.013161,37.496447 127.013008,37.497092 127.012389,37.499736 127.012325,37.500000 127.011908,37.501919 127.011683,37.502533 127.011619,37.502672 127.011528,37.502839 127.010506,37.504700 127.010433,37.504836 127.010272,37.505178 127.009758,37.506256 127.009306,37.507097 127.009144,37.507364 127.009047,37.507422 127.008892,37.507442 127.005036,37.506303 127.004286,37.506083 127.003931,37.505969 127.003247,37.505758 127.002564,37.505544 127.001133,37.505097 127.000969,37.505036 127.000603,37.504883 127.000000,37.504708 126.995672,37.503472"
              }
            },
            {
              "mode": "WALK",
              "sectionTime": 723,
              "distance": 879,
              "start": {
                "name": "신반포역.세화여중고",
                "lon": 126.99566388888888,
                "lat": 37.503508333333336
              },
              "end": {
                "name": "도착지",
                "lon": 126.99418812417571,
                "lat": 37.5005732503054
              },
              "steps": [
                {
                  "streetName": "신반포로",
                  "distance": 42,
                  "description": "신반포로 을 따라 42m 이동",
                  "linestring": "126.99567,37.5035 126.99535,37.503414 126.995224,37.503372"
                },
                {
                  "streetName": "",
                  "distance": 26,
                  "description": "횡단보도 후 26m 이동 ",
                  "linestring": "126.995224,37.503372 126.99494,37.503296"
                },
                {
                  "streetName": "",
                  "distance": 40,
                  "description": "한신상가 에서 좌측 횡단보도 후 40m 이동 ",
                  "linestring": "126.99494,37.503296 126.99502,37.503143 126.99505,37.50305 126.995094,37.502953"
                },
                {
                  "streetName": "",
                  "distance": 107,
                  "description": "직진 후 107m 이동 ",
                  "linestring": "126.995094,37.502953 126.99516,37.502796 126.99526,37.502563 126.995445,37.502033"
                },
                {
                  "streetName": "",
                  "distance": 387,
                  "description": "우회전 후 387m 이동 ",
                  "linestring": "126.995445,37.502033 126.995445,37.50201 126.995445,37.50199 126.99513,37.501842 126.99486,37.501644 126.99475,37.501587 126.99472,37.501522 126.99461,37.50149 126.994514,37.50146 126.99357,37.501247 126.99211,37.500954 126.992035,37.50089 126.991905,37.500706 126.99182,37.50048"
                },
                {
                  "streetName": "",
                  "distance": 164,
                  "description": "좌회전 후 164m 이동 ",
                  "linestring": "126.99182,37.50048 126.991875,37.5005 126.99204,37.50074 126.992096,37.500786 126.99214,37.50078 126.99213,37.50065 126.99297,37.50035 126.99312,37.500347 126.99321,37.500378"
                },
                {
                  "streetName": "보행자도로",
                  "distance": 113,
                  "description": "우회전 후 보행자도로 을 따라 113m 이동 ",
                  "linestring": "126.99321,37.500378 126.99321,37.50036 126.9933,37.500237 126.993416,37.500153 126.99359,37.500103 126.9938,37.500103 126.99431,37.500214"
                }
              ]
            }
          ],
          "totalWalkTime": 984,
          "transferCount": 1,
          "totalDistance": 7950,
          "pathType": 2,
          "totalWalkDistance": 1242
        },
        {
          "fare": {
            "regular": {
              "totalFare": 3000,
              "currency": {
                "symbol": "￦",
                "currency": "원",
                "currencyCode": "KRW"
              }
            }
          },
          "totalTime": 3033,
          "legs": [
            {
              "mode": "WALK",
              "sectionTime": 261,
              "distance": 363,
              "start": {
                "name": "출발지",
                "lon": 127.05787679576707,
                "lat": 37.49971338235268
              },
              "end": {
                "name": "도곡초등학교",
                "lon": 127.05669444444445,
                "lat": 37.49763333333333
              },
              "steps": [
                {
                  "streetName": "",
                  "distance": 29,
                  "description": "29m 이동",
                  "linestring": "127.05806,37.49977 127.05818,37.499523"
                },
                {
                  "streetName": "보행자도로",
                  "distance": 142,
                  "description": "시에나 에서 우회전 후 보행자도로 을 따라 142m 이동 ",
                  "linestring": "127.05818,37.499523 127.05815,37.499474 127.058174,37.499424 127.0584,37.498974 127.05842,37.498943 127.05844,37.498894 127.058685,37.498432 127.058685,37.498344"
                },
                {
                  "streetName": "도곡로",
                  "distance": 192,
                  "description": "던킨도너츠 대치2점 에서 우회전 후 도곡로 을 따라 192m 이동 ",
                  "linestring": "127.058685,37.498344 127.05862,37.498318 127.057816,37.498074 127.05742,37.497944 127.05666,37.497696"
                }
              ]
            },
            {
              "mode": "BUS",
              "routeColor": "0068B7",
              "sectionTime": 966,
              "route": "간선:420",
              "routeId": "11455001",
              "distance": 2915,
              "service": 1,
              "start": {
                "name": "도곡초등학교",
                "lon": 127.05669444444445,
                "lat": 37.49763333333333
              },
              "passStopList": {
                "stationList": [
                  {
                    "index": 0,
                    "stationName": "도곡초등학교",
                    "lon": "127.056694",
                    "lat": "37.497633",
                    "stationID": "772459"
                  },
                  {
                    "index": 1,
                    "stationName": "한티역2번출구.서울강남고용노동지청",
                    "lon": "127.053961",
                    "lat": "37.496744",
                    "stationID": "772431"
                  },
                  {
                    "index": 2,
                    "stationName": "한티역7번출구",
                    "lon": "127.051522",
                    "lat": "37.495989",
                    "stationID": "772409"
                  },
                  {
                    "index": 3,
                    "stationName": "역삼중학교.강남세브란스병원",
                    "lon": "127.047789",
                    "lat": "37.494678",
                    "stationID": "772361"
                  },
                  {
                    "index": 4,
                    "stationName": "도곡1차아이파크.역삼청소년수련관",
                    "lon": "127.041817",
                    "lat": "37.492800",
                    "stationID": "772291"
                  },
                  {
                    "index": 5,
                    "stationName": "역삼럭키아파트.역삼월드메르디앙아파트",
                    "lon": "127.038631",
                    "lat": "37.491817",
                    "stationID": "772244"
                  },
                  {
                    "index": 6,
                    "stationName": "뱅뱅사거리.역삼동",
                    "lon": "127.033667",
                    "lat": "37.490306",
                    "stationID": "772187"
                  },
                  {
                    "index": 7,
                    "stationName": "래미안아파트.파이낸셜뉴스(중)",
                    "lon": "127.030906",
                    "lat": "37.491292",
                    "stationID": "772216"
                  },
                  {
                    "index": 8,
                    "stationName": "신분당선강남역",
                    "lon": "127.029117",
                    "lat": "37.495128",
                    "stationID": "772379"
                  }
                ]
              },
              "end": {
                "name": "신분당선강남역",
                "lon": 127.02911666666667,
                "lat": 37.495127777777775
              },
              "type": 11,
              "passShape": {
                "linestring": "127.056708,37.497600 127.054783,37.496969 127.053967,37.496708 127.052958,37.496389 127.052792,37.496336 127.051547,37.495919 127.049719,37.495308 127.047803,37.494644 127.046794,37.494294 127.046622,37.494247 127.046356,37.494192 127.041831,37.492767 127.040947,37.492489 127.040778,37.492436 127.038658,37.491786 127.036753,37.491203 127.034733,37.490606 127.033678,37.490269 127.032847,37.490006 127.031731,37.489681 127.030925,37.491308 127.030083,37.493006 127.030019,37.493139 127.029072,37.495117"
              }
            },
            {
              "mode": "WALK",
              "sectionTime": 119,
              "distance": 125,
              "start": {
                "name": "신분당선강남역",
                "lon": 127.02911666666667,
                "lat": 37.495127777777775
              },
              "end": {
                "name": "신분당선.강남역4번출구",
                "lon": 127.02957777777777,
                "lat": 37.49446388888889
              },
              "passShape": {
                "linestring": "127.029117,37.495128 127.028978,37.495192 127.029192,37.495256 127.029281,37.495069 127.029439,37.494742 127.029578,37.494464"
              }
            },
            {
              "routeColor": "FF3300",
              "distance": 4022,
              "start": {
                "name": "신분당선.강남역4번출구",
                "lon": 127.02957777777777,
                "lat": 37.49446388888889
              },
              "Lane": [
                {
                  "routeColor": "FF3300",
                  "route": "광역:9500",
                  "routeId": "3959001",
                  "service": 1,
                  "type": 14
                },
                {
                  "routeColor": "FF3300",
                  "route": "광역:9802",
                  "routeId": "11790001",
                  "service": 1,
                  "type": 14
                }
              ],
              "type": 14,
              "mode": "BUS",
              "sectionTime": 964,
              "route": "광역:9501",
              "routeId": "3960001",
              "service": 1,
              "passStopList": {
                "stationList": [
                  {
                    "index": 0,
                    "stationName": "신분당선.강남역4번출구",
                    "lon": "127.029578",
                    "lat": "37.494464",
                    "stationID": "772354"
                  },
                  {
                    "index": 1,
                    "stationName": "신논현역",
                    "lon": "127.025958",
                    "lat": "37.501964",
                    "stationID": "772617"
                  },
                  {
                    "index": 2,
                    "stationName": "논현역(중)",
                    "lon": "127.023669",
                    "lat": "37.506364",
                    "stationID": "772763"
                  },
                  {
                    "index": 3,
                    "stationName": "반포역",
                    "lon": "127.012139",
                    "lat": "37.508453",
                    "stationID": "772823"
                  },
                  {
                    "index": 4,
                    "stationName": "고속터미널(중)",
                    "lon": "127.005056",
                    "lat": "37.506289",
                    "stationID": "772760"
                  },
                  {
                    "index": 5,
                    "stationName": "신반포역.세화여중고",
                    "lon": "126.995664",
                    "lat": "37.503508",
                    "stationID": "753743"
                  }
                ]
              },
              "end": {
                "name": "신반포역.세화여중고",
                "lon": 126.99566388888888,
                "lat": 37.503508333333336
              },
              "passShape": {
                "linestring": "127.029419,37.494392 127.028481,37.496356 127.027933,37.497553 127.027758,37.497942 127.027694,37.498078 127.027528,37.498419 127.026767,37.500000 127.025825,37.501944 127.024603,37.504478 127.024539,37.504614 127.023697,37.506369 127.021444,37.511069 127.021339,37.511119 127.021211,37.511153 127.014922,37.509250 127.012153,37.508419 127.009061,37.507492 127.008892,37.507442 127.005036,37.506303 127.004286,37.506083 127.003931,37.505969 127.003247,37.505758 127.002564,37.505544 127.001133,37.505097 127.000969,37.505036 127.000603,37.504883 127.000000,37.504708 126.995672,37.503472"
              }
            },
            {
              "mode": "WALK",
              "sectionTime": 723,
              "distance": 879,
              "start": {
                "name": "신반포역.세화여중고",
                "lon": 126.99566388888888,
                "lat": 37.503508333333336
              },
              "end": {
                "name": "도착지",
                "lon": 126.99418812417571,
                "lat": 37.5005732503054
              },
              "steps": [
                {
                  "streetName": "신반포로",
                  "distance": 42,
                  "description": "신반포로 을 따라 42m 이동",
                  "linestring": "126.99567,37.5035 126.99535,37.503414 126.995224,37.503372"
                },
                {
                  "streetName": "",
                  "distance": 26,
                  "description": "횡단보도 후 26m 이동 ",
                  "linestring": "126.995224,37.503372 126.99494,37.503296"
                },
                {
                  "streetName": "",
                  "distance": 40,
                  "description": "한신상가 에서 좌측 횡단보도 후 40m 이동 ",
                  "linestring": "126.99494,37.503296 126.99502,37.503143 126.99505,37.50305 126.995094,37.502953"
                },
                {
                  "streetName": "",
                  "distance": 107,
                  "description": "직진 후 107m 이동 ",
                  "linestring": "126.995094,37.502953 126.99516,37.502796 126.99526,37.502563 126.995445,37.502033"
                },
                {
                  "streetName": "",
                  "distance": 387,
                  "description": "우회전 후 387m 이동 ",
                  "linestring": "126.995445,37.502033 126.995445,37.50201 126.995445,37.50199 126.99513,37.501842 126.99486,37.501644 126.99475,37.501587 126.99472,37.501522 126.99461,37.50149 126.994514,37.50146 126.99357,37.501247 126.99211,37.500954 126.992035,37.50089 126.991905,37.500706 126.99182,37.50048"
                },
                {
                  "streetName": "",
                  "distance": 164,
                  "description": "좌회전 후 164m 이동 ",
                  "linestring": "126.99182,37.50048 126.991875,37.5005 126.99204,37.50074 126.992096,37.500786 126.99214,37.50078 126.99213,37.50065 126.99297,37.50035 126.99312,37.500347 126.99321,37.500378"
                },
                {
                  "streetName": "보행자도로",
                  "distance": 113,
                  "description": "우회전 후 보행자도로 을 따라 113m 이동 ",
                  "linestring": "126.99321,37.500378 126.99321,37.50036 126.9933,37.500237 126.993416,37.500153 126.99359,37.500103 126.9938,37.500103 126.99431,37.500214"
                }
              ]
            }
          ],
          "totalWalkTime": 1103,
          "transferCount": 1,
          "totalDistance": 7669,
          "pathType": 2,
          "totalWalkDistance": 1367
        },
        {
          "fare": {
            "regular": {
              "totalFare": 1500,
              "currency": {
                "symbol": "￦",
                "currency": "원",
                "currencyCode": "KRW"
              }
            }
          },
          "totalTime": 3515,
          "legs": [
            {
              "mode": "WALK",
              "sectionTime": 261,
              "distance": 363,
              "start": {
                "name": "출발지",
                "lon": 127.05787679576707,
                "lat": 37.49971338235268
              },
              "end": {
                "name": "도곡초등학교",
                "lon": 127.05669444444445,
                "lat": 37.49763333333333
              },
              "steps": [
                {
                  "streetName": "",
                  "distance": 29,
                  "description": "29m 이동",
                  "linestring": "127.05806,37.49977 127.05818,37.499523"
                },
                {
                  "streetName": "보행자도로",
                  "distance": 142,
                  "description": "시에나 에서 우회전 후 보행자도로 을 따라 142m 이동 ",
                  "linestring": "127.05818,37.499523 127.05815,37.499474 127.058174,37.499424 127.0584,37.498974 127.05842,37.498943 127.05844,37.498894 127.058685,37.498432 127.058685,37.498344"
                },
                {
                  "streetName": "도곡로",
                  "distance": 192,
                  "description": "던킨도너츠 대치2점 에서 우회전 후 도곡로 을 따라 192m 이동 ",
                  "linestring": "127.058685,37.498344 127.05862,37.498318 127.057816,37.498074 127.05742,37.497944 127.05666,37.497696"
                }
              ]
            },
            {
              "mode": "BUS",
              "routeColor": "0068B7",
              "sectionTime": 945,
              "route": "간선:340",
              "routeId": "11913001",
              "distance": 2808,
              "service": 1,
              "start": {
                "name": "도곡초등학교",
                "lon": 127.05669444444445,
                "lat": 37.49763333333333
              },
              "passStopList": {
                "stationList": [
                  {
                    "index": 0,
                    "stationName": "도곡초등학교",
                    "lon": "127.056694",
                    "lat": "37.497633",
                    "stationID": "772459"
                  },
                  {
                    "index": 1,
                    "stationName": "한티역2번출구.서울강남고용노동지청",
                    "lon": "127.053961",
                    "lat": "37.496744",
                    "stationID": "772431"
                  },
                  {
                    "index": 2,
                    "stationName": "한티역7번출구",
                    "lon": "127.051522",
                    "lat": "37.495989",
                    "stationID": "772409"
                  },
                  {
                    "index": 3,
                    "stationName": "역삼중학교.강남세브란스병원",
                    "lon": "127.047789",
                    "lat": "37.494678",
                    "stationID": "772361"
                  },
                  {
                    "index": 4,
                    "stationName": "도곡1차아이파크.역삼청소년수련관",
                    "lon": "127.041817",
                    "lat": "37.492800",
                    "stationID": "772291"
                  },
                  {
                    "index": 5,
                    "stationName": "역삼럭키아파트.역삼월드메르디앙아파트",
                    "lon": "127.038631",
                    "lat": "37.491817",
                    "stationID": "772244"
                  },
                  {
                    "index": 6,
                    "stationName": "뱅뱅사거리.역삼동",
                    "lon": "127.033667",
                    "lat": "37.490306",
                    "stationID": "772187"
                  },
                  {
                    "index": 7,
                    "stationName": "뱅뱅사거리",
                    "lon": "127.029339",
                    "lat": "37.488983",
                    "stationID": "772142"
                  },
                  {
                    "index": 8,
                    "stationName": "래미안리더스원아파트",
                    "lon": "127.027606",
                    "lat": "37.490203",
                    "stationID": "772183"
                  }
                ]
              },
              "end": {
                "name": "래미안리더스원아파트",
                "lon": 127.02760555555555,
                "lat": 37.490202777777775
              },
              "type": 11,
              "passShape": {
                "linestring": "127.056708,37.497600 127.054783,37.496969 127.053967,37.496708 127.052958,37.496389 127.052792,37.496336 127.051547,37.495919 127.049719,37.495308 127.047803,37.494644 127.046794,37.494294 127.046622,37.494247 127.046356,37.494192 127.041831,37.492767 127.040947,37.492489 127.040778,37.492436 127.038658,37.491786 127.036753,37.491203 127.034733,37.490606 127.033678,37.490269 127.032847,37.490006 127.031731,37.489681 127.031692,37.489669 127.031522,37.489619 127.031478,37.489606 127.029372,37.488958 127.028308,37.488633 127.027561,37.490192"
              }
            },
            {
              "mode": "WALK",
              "sectionTime": 0,
              "distance": 0,
              "start": {
                "name": "래미안리더스원아파트",
                "lon": 127.02760555555555,
                "lat": 37.490202777777775
              },
              "end": {
                "name": "래미안리더스원아파트",
                "lon": 127.02760555555555,
                "lat": 37.490202777777775
              },
              "passShape": {
                "linestring": "127.027606,37.490203 127.027606,37.490203"
              }
            },
            {
              "mode": "BUS",
              "routeColor": "53B332",
              "sectionTime": 1609,
              "route": "마을:서초21",
              "routeId": "11922001",
              "distance": 4589,
              "service": 1,
              "start": {
                "name": "래미안리더스원아파트",
                "lon": 127.02760555555555,
                "lat": 37.490202777777775
              },
              "passStopList": {
                "stationList": [
                  {
                    "index": 0,
                    "stationName": "래미안리더스원아파트",
                    "lon": "127.027606",
                    "lat": "37.490203",
                    "stationID": "772183"
                  },
                  {
                    "index": 1,
                    "stationName": "서초동신동아아파트",
                    "lon": "127.025344",
                    "lat": "37.491769",
                    "stationID": "772239"
                  },
                  {
                    "index": 2,
                    "stationName": "창신교회앞.서리풀노리학교",
                    "lon": "127.021197",
                    "lat": "37.490514",
                    "stationID": "772199"
                  },
                  {
                    "index": 3,
                    "stationName": "서초1동주민센터",
                    "lon": "127.018464",
                    "lat": "37.489686",
                    "stationID": "772163"
                  },
                  {
                    "index": 4,
                    "stationName": "서울교대정문",
                    "lon": "127.016358",
                    "lat": "37.489042",
                    "stationID": "772143"
                  },
                  {
                    "index": 5,
                    "stationName": "청호나이스",
                    "lon": "127.013033",
                    "lat": "37.488028",
                    "stationID": "772106"
                  },
                  {
                    "index": 6,
                    "stationName": "서초동삼성아파트",
                    "lon": "127.009456",
                    "lat": "37.488692",
                    "stationID": "772129"
                  },
                  {
                    "index": 7,
                    "stationName": "서초역2번출구",
                    "lon": "127.008211",
                    "lat": "37.491233",
                    "stationID": "772217"
                  },
                  {
                    "index": 8,
                    "stationName": "서초역.서울중앙지법등기국",
                    "lon": "127.007306",
                    "lat": "37.493047",
                    "stationID": "772305"
                  },
                  {
                    "index": 9,
                    "stationName": "서초경찰서",
                    "lon": "127.005983",
                    "lat": "37.495689",
                    "stationID": "772405"
                  },
                  {
                    "index": 10,
                    "stationName": "서울성모병원.서울지방조달청",
                    "lon": "127.004108",
                    "lat": "37.500403",
                    "stationID": "772566"
                  },
                  {
                    "index": 11,
                    "stationName": "삼성래미안",
                    "lon": "127.001950",
                    "lat": "37.503728",
                    "stationID": "772684"
                  },
                  {
                    "index": 12,
                    "stationName": "반포종합운동장",
                    "lon": "126.996336",
                    "lat": "37.499436",
                    "stationID": "753398"
                  },
                  {
                    "index": 13,
                    "stationName": "서초소방서",
                    "lon": "126.992658",
                    "lat": "37.498347",
                    "stationID": "753291"
                  }
                ]
              },
              "end": {
                "name": "서초소방서",
                "lon": 126.99265833333334,
                "lat": 37.49834722222222
              },
              "type": 3,
              "passShape": {
                "linestring": "127.027561,37.490192 127.026703,37.491989 127.026583,37.492031 127.026469,37.492075 127.025353,37.491736 127.021208,37.490481 127.020931,37.490394 127.019808,37.490064 127.018461,37.489650 127.016367,37.489006 127.014683,37.488489 127.014508,37.488436 127.013056,37.487997 127.010133,37.487111 127.009367,37.488672 127.008122,37.491214 127.007825,37.491822 127.007758,37.491956 127.007214,37.493044 127.005894,37.495686 127.004553,37.498369 127.004428,37.498644 127.004339,37.498906 127.004269,37.499158 127.004136,37.499783 127.004100,37.500000 127.004031,37.500367 127.003828,37.501442 127.003781,37.501606 127.003581,37.502056 127.003436,37.502281 127.002889,37.502922 127.002567,37.503300 127.001614,37.504464 127.001458,37.504392 127.001981,37.503753 127.002417,37.503219 127.002992,37.502544 127.002928,37.502386 127.002725,37.502100 127.002481,37.501881 127.002333,37.501800 127.001792,37.501575 127.000289,37.500983 127.000083,37.500858 127.000000,37.500825 126.997947,37.500031 126.997886,37.500000 126.996906,37.499592 126.996747,37.499536 126.996392,37.499381 126.996358,37.499367 126.995211,37.498914 126.994397,37.498600 126.994156,37.498525 126.993842,37.498431 126.993481,37.498350 126.992742,37.498256 126.992597,37.498250"
              }
            },
            {
              "mode": "WALK",
              "sectionTime": 700,
              "distance": 877,
              "start": {
                "name": "서초소방서",
                "lon": 126.99265833333334,
                "lat": 37.49834722222222
              },
              "end": {
                "name": "도착지",
                "lon": 126.99418812417571,
                "lat": 37.5005732503054
              },
              "steps": [
                {
                  "streetName": "사평대로",
                  "distance": 228,
                  "description": "사평대로 을 따라 228m 이동",
                  "linestring": "126.99266,37.49834 126.99243,37.498333 126.99229,37.49833 126.991005,37.49837 126.99091,37.498375 126.99085,37.498375 126.9908,37.49838 126.99045,37.498383 126.990364,37.498383 126.99008,37.498386"
                },
                {
                  "streetName": "보행자도로",
                  "distance": 67,
                  "description": "우회전 후 보행자도로 을 따라 67m 이동 ",
                  "linestring": "126.99008,37.498386 126.99009,37.498512 126.99009,37.498573 126.99009,37.498657 126.99009,37.498734 126.990105,37.498993"
                },
                {
                  "streetName": "사평대로",
                  "distance": 5,
                  "description": "우회전 후 사평대로 을 따라 5m 이동 ",
                  "linestring": "126.990105,37.498993 126.99015,37.49901"
                },
                {
                  "streetName": "",
                  "distance": 55,
                  "description": "좌회전 후 55m 이동 ",
                  "linestring": "126.99015,37.49901 126.98998,37.499493"
                },
                {
                  "streetName": "",
                  "distance": 171,
                  "description": "우회전 후 171m 이동 ",
                  "linestring": "126.98998,37.499493 126.99065,37.499687 126.991005,37.499805 126.99106,37.499813 126.99115,37.49981 126.99121,37.49981 126.991295,37.499832 126.99139,37.499866 126.99147,37.49991 126.99152,37.49992 126.99161,37.499893 126.99178,37.499836"
                },
                {
                  "streetName": "",
                  "distance": 73,
                  "description": "좌회전 후 73m 이동 ",
                  "linestring": "126.99178,37.499836 126.99176,37.49992 126.99171,37.50009 126.99182,37.50048"
                },
                {
                  "streetName": "",
                  "distance": 165,
                  "description": "우회전 후 165m 이동 ",
                  "linestring": "126.99182,37.50048 126.991875,37.5005 126.99204,37.50074 126.992096,37.500786 126.99214,37.50078 126.99213,37.50065 126.99297,37.50035 126.99312,37.500347 126.99321,37.500378"
                },
                {
                  "streetName": "보행자도로",
                  "distance": 113,
                  "description": "우회전 후 보행자도로 을 따라 113m 이동 ",
                  "linestring": "126.99321,37.500378 126.99321,37.50036 126.9933,37.500237 126.993416,37.500153 126.99359,37.500103 126.9938,37.500103 126.99431,37.500214"
                }
              ]
            }
          ],
          "totalWalkTime": 961,
          "transferCount": 1,
          "totalDistance": 7935,
          "pathType": 2,
          "totalWalkDistance": 1240
        },
        {
          "fare": {
            "regular": {
              "totalFare": 1500,
              "currency": {
                "symbol": "￦",
                "currency": "원",
                "currencyCode": "KRW"
              }
            }
          },
          "totalTime": 3402,
          "legs": [
            {
              "mode": "WALK",
              "sectionTime": 356,
              "distance": 393,
              "start": {
                "name": "출발지",
                "lon": 127.05787679576707,
                "lat": 37.49971338235268
              },
              "end": {
                "name": "영동농협풍림아이원아파트",
                "lon": 127.0569388888889,
                "lat": 37.502633333333335
              },
              "steps": [
                {
                  "streetName": "",
                  "distance": 312,
                  "description": "312m 이동",
                  "linestring": "127.05806,37.49977 127.05791,37.500088 127.057594,37.50071 127.05731,37.501255 127.05701,37.501823 127.05673,37.502377"
                },
                {
                  "streetName": "역삼로",
                  "distance": 17,
                  "description": "빵굼터 대치동점 에서 좌회전 후 역삼로 을 따라 17m 이동 ",
                  "linestring": "127.05673,37.502377 127.05656,37.502316"
                },
                {
                  "streetName": "보행자도로",
                  "distance": 19,
                  "description": "빵굼터 대치동점 에서 우측 횡단보도 후 보행자도로 을 따라 19m 이동 ",
                  "linestring": "127.05656,37.502316 127.056465,37.502476"
                },
                {
                  "streetName": "역삼로",
                  "distance": 12,
                  "description": "영동농협 대치지점 에서 우회전 후 역삼로 을 따라 12m 이동 ",
                  "linestring": "127.056465,37.502476 127.0566,37.502518"
                },
                {
                  "streetName": "보행자도로",
                  "distance": 12,
                  "description": "횡단보도 후 보행자도로 을 따라 12m 이동 ",
                  "linestring": "127.0566,37.502518 127.056725,37.50256"
                },
                {
                  "streetName": "역삼로",
                  "distance": 21,
                  "description": "직진 후 역삼로 을 따라 21m 이동 ",
                  "linestring": "127.056725,37.50256 127.056755,37.502567 127.05694,37.50263"
                }
              ]
            },
            {
              "mode": "BUS",
              "routeColor": "0068B7",
              "sectionTime": 1271,
              "route": "간선:350",
              "routeId": "11865001",
              "distance": 4196,
              "service": 1,
              "start": {
                "name": "영동농협풍림아이원아파트",
                "lon": 127.0569388888889,
                "lat": 37.502633333333335
              },
              "passStopList": {
                "stationList": [
                  {
                    "index": 0,
                    "stationName": "영동농협풍림아이원아파트",
                    "lon": "127.056939",
                    "lat": "37.502633",
                    "stationID": "772639"
                  },
                  {
                    "index": 1,
                    "stationName": "도성초교사거리",
                    "lon": "127.051489",
                    "lat": "37.500853",
                    "stationID": "772574"
                  },
                  {
                    "index": 2,
                    "stationName": "역삼동개나리아파트",
                    "lon": "127.047361",
                    "lat": "37.499528",
                    "stationID": "772523"
                  },
                  {
                    "index": 3,
                    "stationName": "신한은행데이터센터",
                    "lon": "127.043664",
                    "lat": "37.498150",
                    "stationID": "772473"
                  },
                  {
                    "index": 4,
                    "stationName": "총지사",
                    "lon": "127.040703",
                    "lat": "37.496689",
                    "stationID": "772428"
                  },
                  {
                    "index": 5,
                    "stationName": "역삼초등학교",
                    "lon": "127.034006",
                    "lat": "37.494378",
                    "stationID": "772352"
                  },
                  {
                    "index": 6,
                    "stationName": "서초청소년도서관",
                    "lon": "127.028525",
                    "lat": "37.492728",
                    "stationID": "772286"
                  },
                  {
                    "index": 7,
                    "stationName": "서초동신동아아파트",
                    "lon": "127.025344",
                    "lat": "37.491769",
                    "stationID": "772239"
                  },
                  {
                    "index": 8,
                    "stationName": "창신교회앞.서리풀노리학교",
                    "lon": "127.021197",
                    "lat": "37.490514",
                    "stationID": "772199"
                  },
                  {
                    "index": 9,
                    "stationName": "서울교대정문앞",
                    "lon": "127.016089",
                    "lat": "37.488958",
                    "stationID": "772138"
                  },
                  {
                    "index": 10,
                    "stationName": "서울교대사거리",
                    "lon": "127.013208",
                    "lat": "37.488081",
                    "stationID": "772109"
                  }
                ]
              },
              "end": {
                "name": "서울교대사거리",
                "lon": 127.01320833333334,
                "lat": 37.488080555555555
              },
              "type": 11,
              "passShape": {
                "linestring": "127.056939,37.502600 127.056922,37.502594 127.051514,37.500819 127.051500,37.500817 127.050914,37.500650 127.050747,37.500594 127.048919,37.500000 127.047375,37.499492 127.044764,37.498636 127.044603,37.498572 127.043678,37.498117 127.040739,37.496667 127.039300,37.495956 127.039136,37.495894 127.034039,37.494353 127.033422,37.494167 127.030019,37.493139 127.029794,37.493072 127.028544,37.492697 127.026639,37.492125 127.026469,37.492075 127.025353,37.491736 127.021208,37.490481 127.020931,37.490394 127.019808,37.490064 127.016114,37.488928 127.014683,37.488489 127.014508,37.488436 127.013219,37.488047"
              }
            },
            {
              "mode": "WALK",
              "sectionTime": 11,
              "distance": 17,
              "start": {
                "name": "서울교대사거리",
                "lon": 127.01320833333334,
                "lat": 37.488080555555555
              },
              "end": {
                "name": "청호나이스",
                "lon": 127.01303333333334,
                "lat": 37.48802777777778
              },
              "passShape": {
                "linestring": "127.013208,37.488081 127.013033,37.488028"
              }
            },
            {
              "mode": "BUS",
              "routeColor": "53B332",
              "sectionTime": 1064,
              "route": "마을:서초21",
              "routeId": "11922001",
              "distance": 3159,
              "service": 1,
              "start": {
                "name": "청호나이스",
                "lon": 127.01303333333334,
                "lat": 37.48802777777778
              },
              "passStopList": {
                "stationList": [
                  {
                    "index": 0,
                    "stationName": "청호나이스",
                    "lon": "127.013033",
                    "lat": "37.488028",
                    "stationID": "772106"
                  },
                  {
                    "index": 1,
                    "stationName": "서초동삼성아파트",
                    "lon": "127.009456",
                    "lat": "37.488692",
                    "stationID": "772129"
                  },
                  {
                    "index": 2,
                    "stationName": "서초역2번출구",
                    "lon": "127.008211",
                    "lat": "37.491233",
                    "stationID": "772217"
                  },
                  {
                    "index": 3,
                    "stationName": "서초역.서울중앙지법등기국",
                    "lon": "127.007306",
                    "lat": "37.493047",
                    "stationID": "772305"
                  },
                  {
                    "index": 4,
                    "stationName": "서초경찰서",
                    "lon": "127.005983",
                    "lat": "37.495689",
                    "stationID": "772405"
                  },
                  {
                    "index": 5,
                    "stationName": "서울성모병원.서울지방조달청",
                    "lon": "127.004108",
                    "lat": "37.500403",
                    "stationID": "772566"
                  },
                  {
                    "index": 6,
                    "stationName": "삼성래미안",
                    "lon": "127.001950",
                    "lat": "37.503728",
                    "stationID": "772684"
                  },
                  {
                    "index": 7,
                    "stationName": "반포종합운동장",
                    "lon": "126.996336",
                    "lat": "37.499436",
                    "stationID": "753398"
                  },
                  {
                    "index": 8,
                    "stationName": "서초소방서",
                    "lon": "126.992658",
                    "lat": "37.498347",
                    "stationID": "753291"
                  }
                ]
              },
              "end": {
                "name": "서초소방서",
                "lon": 126.99265833333334,
                "lat": 37.49834722222222
              },